ID,Location,Longitude,Latitude,Pollutants,Location Type,Normalized Longitude,Normalized Latitude
1,Withywood School,51.407745517999835,-2.6277488032062446,BTX NO2,Urban Traffic,0.0909,0.4508
2,Colston Avenue,51.454556566902696,-2.5968139474821794,NO2,Urban Traffic,0.2938,0.5159
3,Blackboy Hill,51.46920548941127,-2.613994167991525,NO2,Urban Traffic,0.3573,0.4797
4,Three Lamps,51.444209895530584,-2.578333463205696,NO2,Urban Traffic,0.249,0.5548
5,Bedminster Parade,51.442812042759506,-2.595294420664777,NO2,Urban Traffic,0.2429,0.5191
6,Church Road,51.458358093425005,-2.558965289247974,NO2,Urban Traffic,0.3103,0.5955
7,St. Andrew's Rd,51.50110981955063,-2.6971476452140064,NO2,Urban Traffic,0.4956,0.3047
8,Higham Street,51.44468165952045,-2.579303486860559,NO2,Urban Background,0.251,0.5527
9,B.R.I.,51.45895176376313,-2.5954175081992816,NO2,Urban Traffic,0.3129,0.5188
10,Bath Road,51.440516404879745,-2.5593809324143635,NO2,Urban Traffic,0.233,0.5947
11,Whitefriars,51.45754626447907,-2.594190185154556,NO2,Urban Traffic,0.3068,0.5214
12,Galleries,51.45639234685148,-2.5894399544611586,NO2,Urban Traffic,0.3018,0.5314
13,Ferndown Close,51.49450001199961,-2.656900421884163,NO2,Urban Background,0.4669,0.3894
14,Red Lion Knowle,51.43016217223045,-2.5641445698086747,NO2,Urban Traffic,0.1881,0.5846
15,Horsefair,51.4588669853932,-2.5872839459753796,NO2,Urban Traffic,0.3125,0.5359
16,Third Way,51.50518715900643,-2.688839013557719,NO2,Urban Traffic,0.5133,0.3222
17,Anglesea Place,51.468580852794794,-2.6165052627526926,NO2,Urban Traffic,0.3546,0.4744
18,Hillcrest,51.428360058828844,-2.5667976031020703,NO2,Urban Background,0.1803,0.579
19,Conham Vale,51.44686157275239,-2.5349374193143355,NO2,Urban Traffic,0.2605,0.6461
20,Newfoundland Way,51.46019039076201,-2.5833713425664975,NO2,Urban Traffic,0.3182,0.5442
21,Gloucester Road,51.475221232380214,-2.591223636121801,NO2,Urban Traffic,0.3834,0.5276
22,Stokes Croft,51.462459134976214,-2.589993149131989,NO2,Urban Traffic,0.3281,0.5302
23,Old Market,51.45601753036153,-2.583490939638871,NO2,Urban Traffic,0.3001,0.5439
24,Easton Primary School,51.460178633797184,-2.5730074922004293,BTX NO2,Urban Background,0.3182,0.566
25,Filwood Bus Depot,51.42033770414306,-2.587292239744642,BTX NO2,Urban Background,0.1455,0.5359
26,59 Creswicke Rd,51.422903293307705,-2.583096850869994,BTX NO2,Urban Background,0.1566,0.5447
27,111 Creswicke Rd,51.42287336017366,-2.5872963047295974,BTX NO2,Urban Background,0.1565,0.5359
28,RO 243 Creswicke Rd,51.42031264836733,-2.592268257145369,BTX NO2,Urban Background,0.1454,0.5254
29,Fishponds - Gloucester St,51.47306135239954,-2.5547679405625807,BTX NO2,Urban Traffic,0.374,0.6044
30,Old Market,51.45599213461197,-2.5831739784339502,BTX NO2,Urban Traffic,0.3,0.5446
31,Lawrence Weston,51.49732774522595,-2.649666117538609,BTX NO2,Rural Industrial,0.4792,0.4046
32,Holesmouth,51.52410630803511,-2.691719767611706,BTX NO2,Rural Industrial,0.5953,0.3161
33,Chitening Wharf,51.54308689778751,-2.6717619253536484,BTX NO2,Rural Industrial,0.6775,0.3581
34,Hallen,51.51539337264058,-2.654203348399832,BTX NO2,Rural Industrial,0.5575,0.3951
35,Severn Beach,51.55141086289647,-2.669014220328508,BTX NO2,Rural Industrial,0.7136,0.3639
36,Lower Over Farm,51.540793283384154,-2.5954483798628356,BTX NO2,Rural Industrial,0.6676,0.5187
37,Northwick Oaze,51.597669510050316,-2.63094495900307,BTX NO2,Rural Industrial,0.9141,0.444
38,Littleton Wharf,51.61749401500854,-2.5970011609105708,BTX NO2,Rural Industrial,1.0,0.5155
39,Earthcott Green,51.55207627216405,-2.49746068689677,BTX NO2,Rural Industrial,0.7165,0.725
40,Prince St Bridge (centre side),51.44906302704521,-2.596713627932619,BTX NO2,Urban Traffic,0.27,0.5161
41,Prince St Bridge (Bedminster side),51.448254196076306,-2.596631185635214,BTX NO2,Urban Traffic,0.2665,0.5163
42,Hotwells - Pump House,51.44838352286073,-2.6184774382739517,BTX NO2,Urban Traffic,0.2671,0.4703
43,Victoria St - A,51.45307902028453,-2.59028962223018,BTX NO2,Urban Traffic,0.2874,0.5296
44,Portwall Lane - A,51.44912138043712,-2.5869576824712865,BTX NO2,Urban Traffic,0.2703,0.5366
45,Portwall Lane - B,51.449355221666586,-2.586946278778313,BTX NO2,Urban Traffic,0.2713,0.5366
46,Portwall Lane - C,51.44922233375891,-2.588340454505876,BTX NO2,Urban Traffic,0.2707,0.5337
47,Portwall Lane - D,51.44948329313379,-2.5883006234742933,BTX NO2,Urban Traffic,0.2718,0.5338
48,Redcliff St - A,51.44954804840275,-2.5897261158117177,BTX NO2,Urban Traffic,0.2721,0.5308
49,Redcliffe St - B,51.44991653869884,-2.589759624611217,BTX NO2,Urban Traffic,0.2737,0.5307
50,Redcliffe Hill - A,51.448239546023515,-2.590659079665611,BTX NO2,Urban Traffic,0.2664,0.5288
51,Redcliffe Hill - B,51.447088175609295,-2.590745016426545,BTX NO2,Urban Traffic,0.2614,0.5286
52,Guinea St,51.447215839623794,-2.592171252666726,BTX NO2,Urban Traffic,0.262,0.5256
53,Victoria St - B,51.45317089419918,-2.58990222862502,BTX NO2,Urban Traffic,0.2878,0.5304
54,Commercial Rd - A,51.44636469818718,-2.595110161763167,BTX NO2,Urban Traffic,0.2583,0.5195
55,Commercial Rd - B,51.446303291719495,-2.5930372661506484,BTX NO2,Urban Traffic,0.258,0.5238
56,Clarence Rd - A,51.44568121796843,-2.5898060171992303,BTX NO2,Urban Traffic,0.2553,0.5306
57,Clarence Rd - B,51.44544418343347,-2.588666218667208,BTX NO2,Urban Traffic,0.2543,0.533
58,Clarence Rd - C,51.44574389435993,-2.586281412443419,BTX NO2,Urban Traffic,0.2556,0.538
59,Clarence Rd - D,51.44659806059138,-2.584493599468467,BTX NO2,Urban Traffic,0.2593,0.5418
60,Clarence Rd - E,51.44730776683381,-2.5828190028971996,BTX NO2,Urban Traffic,0.2624,0.5453
61,Temple Gate - A,51.44828385530292,-2.5836228520946656,BTX NO2,Urban Traffic,0.2666,0.5436
62,Temple Gate - B,51.44844720276235,-2.5833227317342398,BTX NO2,Urban Traffic,0.2673,0.5443
63,Victoria St - C,51.45153706001794,-2.5875786073051197,BTX NO2,Urban Traffic,0.2807,0.5353
64,Bath Bridge,51.446782445476146,-2.581776270254732,BTX NO2,Urban Traffic,0.2601,0.5475
65,York Rd - A,51.446208912311214,-2.583193579915087,BTX NO2,Urban Traffic,0.2576,0.5445
66,York Rd - B,51.44487872666277,-2.5866732721804797,BTX NO2,Urban Traffic,0.2519,0.5372
67,York Rd - C,51.444848379427825,-2.589133431363525,BTX NO2,Urban Traffic,0.2517,0.532
68,Temple Way - A,51.45190178679176,-2.5847769773817206,BTX NO2,Urban Traffic,0.2823,0.5412
69,Temple Way - B,51.451887901758475,-2.5839564962688994,BTX NO2,Urban Traffic,0.2822,0.5429
70,Victoria St - D,51.45153074211064,-2.587046052764424,BTX NO2,Urban Traffic,0.2807,0.5364
71,Pipe Lane,51.45004468031411,-2.583933039722713,BTX NO2,Urban Traffic,0.2743,0.543
72,Redcliffe Way - B,51.44918095394363,-2.585835989782436,BTX NO2,Urban Traffic,0.2705,0.539
73,Redcliffe Way - C,51.44905349231968,-2.586150953326701,BTX NO2,Urban Traffic,0.27,0.5383
74,Redcliffe Way - D,51.44883489194825,-2.586709387683173,BTX NO2,Urban Traffic,0.269,0.5371
75,St Nicholas Rd,51.464148411648885,-2.581248104688814,BTX NO2,Urban Background,0.3354,0.5486
76,Cotham Lawn Rd,51.464443398061334,-2.6011753983013257,BTX NO2,Urban Background,0.3367,0.5067
77,The Limes Nursery School,51.46424823535771,-2.5550495915657745,BTX NO2,Urban Background,0.3358,0.6038
78,Eastville Park,51.47590876885662,-2.5534778604831025,BTX NO2,Urban Background,0.3864,0.6071
79,Novers Lane School,51.421864050790724,-2.5984013275436357,BTX NO2,Urban Background,0.1521,0.5125
80,St Mathias,51.48360402905331,-2.528455516980259,BTX NO2,Urban Background,0.4197,0.6597
81,Farmwell Close,51.41050346517592,-2.607842719444675,BTX NO2,Urban Background,0.1029,0.4927
82,Blaise Castle,51.50573763058022,-2.6327259798541376,BTX NO2,Urban Background,0.5156,0.4403
83,Petherton Rd,51.422514586553135,-2.565099797206932,BTX NO2,Urban Background,0.1549,0.5826
84,Henleaze Infants School,51.48415909107563,-2.605237148695138,BTX NO2,Urban Background,0.4221,0.4981
85,Summerleaze Office,51.47494549418897,-2.5162464903439945,BTX NO2,Urban Background,0.3822,0.6854
86,Avon County School,51.49650004190421,-2.6829310686536196,BTX NO2,Urban Background,0.4756,0.3346
87,Southmead Hospital,51.497312480841124,-2.593165967981536,BTX NO2,Urban Background,0.4791,0.5236
88,Stile AcresBroadlands Drive,51.502148970635,-2.6558001060099152,BTX NO2,Urban Background,0.5001,0.3917
89,The Square,51.43118755406222,-2.57152246774236,BTX NO2,Urban Background,0.1925,0.5691
90,Hannah Moore School,51.45374302471645,-2.577964298082191,BTX NO2,Urban Background,0.2903,0.5555
91,Brangwyn Grove,51.48793594713371,-2.565534821580927,BTX NO2,Urban Background,0.4385,0.5817
92,Redland Court,51.47324787283144,-2.6043727216648356,BTX NO2,Urban Background,0.3748,0.5
93,Dundridge Playing Fields,51.45064162588489,-2.5282034496765444,BTX NO2,Urban Background,0.2768,0.6603
94,Airballoon Infants School,51.45854748651449,-2.5297197859583913,BTX NO2,Urban Background,0.3111,0.6571
95,Trowbridge Rd,51.50174160486838,-2.6009600857427055,BTX NO2,Urban Background,0.4983,0.5071
96,Greville Smyth Park,51.44199847315068,-2.61865028733268,BTX NO2,Urban Background,0.2394,0.4699
97,Ashton Vale School,51.433010681439754,-2.6280666808850186,BTX NO2,Urban Background,0.2004,0.4501
98,Stockwood Green School,51.40924896729617,-2.544706650915833,BTX NO2,Urban Background,0.0974,0.6255
99,Bishops Close,51.47602065762965,-2.629349156229855,BTX NO2,Urban Background,0.3868,0.4474
100,Elmlea Jnr School,51.48515936291309,-2.622000114692965,BTX NO2,Urban Background,0.4265,0.4629
101,Teyfant Primary School,51.405860970646636,-2.5890473531359546,BTX NO2,Urban Background,0.0828,0.5322
102,Victoria Park,51.439818405937494,-2.5898746712999476,BTX NO2,Urban Background,0.2299,0.5305
103,Brunel College,51.47727103473025,-2.580479144396356,BTX NO2,Urban Background,0.3923,0.5503
104,Kingshead Lane Park,51.419321591586865,-2.6220695010571693,BTX NO2,Urban Background,0.1411,0.4627
105,Broomhill Jnr School,51.43959670403153,-2.53878075646014,BTX NO2,Urban Background,0.229,0.638
106,St Annes Jnr School,51.44752830760638,-2.550227961791242,BTX NO2,Urban Background,0.2634,0.6139
107,Council House,51.45162210395225,-2.6026761119643744,BTX NO2,Urban Background,0.2811,0.5035
108,Clifton College,51.46236212713957,-2.6209125016949115,BTX NO2,Urban Background,0.3276,0.4652
109,Victoria Street a,51.453850099607294,-2.5907313158587093,BTX NO2,Urban Traffic,0.2908,0.5287
110,Victoria Street,51.45177018534389,-2.587711116597655,NO2,Urban Traffic,0.2817,0.535
111,Redcliffe Street south,51.44942151989429,-2.589854007081192,BTX NO2,Urban Traffic,0.2716,0.5305
112,Redcliffe Hill a,51.448239546023515,-2.590659079665611,BTX NO2,Urban Traffic,0.2664,0.5288
113,Redcliff Hill b,51.44674651347905,-2.590740626476799,BTX NO2,Urban Traffic,0.26,0.5287
114,Commercial Rd b,51.446303291719495,-2.5930372661506484,BTX NO2,Urban Traffic,0.258,0.5238
115,Clarence Road a,51.44562988178933,-2.589287340513123,BTX NO2,Urban Traffic,0.2551,0.5317
116,Clarence Road e,51.44737163645573,-2.582632743678128,BTX NO2,Urban Traffic,0.2627,0.5457
117,Templegate a,51.44828385530292,-2.5836228520946656,BTX NO2,Urban Traffic,0.2666,0.5436
118,Templegate b,51.44844720276235,-2.5833227317342398,BTX NO2,Urban Traffic,0.2673,0.5443
119,Bath Bridge south,51.446782445476146,-2.581776270254732,BTX NO2,Urban Traffic,0.2601,0.5475
120,corner York rd  and  Whitehouse St,51.44475382158686,-2.588268871563152,NO2,Urban Traffic,0.2513,0.5339
121,Corner York Rd  and  Spring St,51.44487872666277,-2.5866732721804797,BTX NO2,Urban Traffic,0.2519,0.5372
122,York Road,51.444762885059774,-2.5882545984160195,NO2,Urban Traffic,0.2514,0.5339
123,Temple Way a,51.451981773829445,-2.5849650844921754,BTX NO2,Urban Traffic,0.2827,0.5408
124,Temple Way b,51.451904231761795,-2.584287704173026,BTX NO2,Urban Traffic,0.2823,0.5422
125,Redcliffe Way east,51.44898680250126,-2.586898402065372,BTX NO2,Urban Traffic,0.2697,0.5367
126,Redcliffe Way west,51.448938466135765,-2.5893585364207947,BTX NO2,Urban Traffic,0.2695,0.5316
127,Temple Gate,51.44894165096553,-2.5851422014522814,BTX NO2,Urban Traffic,0.2695,0.5404
128,between Redcliffe Way and Temple Quay rndbt,51.44952398551517,-2.585566943321254,BTX NO2,Urban Traffic,0.272,0.5395
129,Temple Quay rndbt west,51.45019249643664,-2.58494227131949,BTX NO2,Urban Traffic,0.2749,0.5409
130,Temple Quay rndbt east,51.449954266157484,-2.5840326252108037,BTX NO2,Urban Traffic,0.2739,0.5428
131,Temple Way near Avon Street east,51.45342700820158,-2.5836594711288354,BTX NO2,Urban Traffic,0.2889,0.5436
132,Temple Way near Avon street west,51.45351340190461,-2.5843657701842644,BTX NO2,Urban Traffic,0.2893,0.5421
133,St Thomas Street,51.45119931424219,-2.588581652918336,BTX NO2,Urban Traffic,0.2793,0.5332
134,Redcliffe Street north,51.4515662886665,-2.590701870341586,BTX NO2,Urban Traffic,0.2809,0.5287
135,The  Grove,51.44937686117769,-2.5951203540332766,BTX NO2,Urban Traffic,0.2714,0.5194
136,Prince Street,51.450267318752324,-2.5968299851407086,BTX NO2,Urban Traffic,0.2752,0.5158
137,Bath Bridge north,51.44749174398013,-2.5819867169179322,BTX NO2,Urban Traffic,0.2632,0.5471
138,Bedminster Parade near bridge,51.44499532780551,-2.592085101730448,BTX NO2,Urban Traffic,0.2524,0.5258
139,Coronation Road,51.445532462905255,-2.592552477268808,BTX NO2,Urban Traffic,0.2547,0.5248
140,Bedminster Bridge east,51.445560558745015,-2.5905527165570477,BTX NO2,Urban Traffic,0.2548,0.5291
141,Bedminster Bridge west,51.44592519648595,-2.591348821459799,BTX NO2,Urban Traffic,0.2564,0.5274
142,Coronation Road near entry to Asda,51.44530096603815,-2.5956431934052207,BTX NO2,Urban Traffic,0.2537,0.5183
143,roundabout end of Wapping Rd  commercial road,51.446015487806356,-2.5965877632092074,BTX NO2,Urban Traffic,0.2568,0.5163
144,Anchor Road,51.4516709446927,-2.59841691911104,NO2,Urban Traffic,0.2813,0.5125
145,Anchor Road opp Cathedral School,51.45084858834706,-2.600967752856957,BTX NO2,Urban Traffic,0.2777,0.5071
146,Anchor Road a,51.45050472609301,-2.603136292599651,BTX NO2,Urban Traffic,0.2763,0.5026
147,Anchor Road b,51.45053638635717,-2.603971398697931,BTX NO2,Urban Traffic,0.2764,0.5008
148,Anchor Road c,51.45059568417691,-2.604677350962706,BTX NO2,Urban Traffic,0.2766,0.4993
149,Anchor Road near Hotwells rndbt east,51.45056846641576,-2.6064614987625556,BTX NO2,Urban Traffic,0.2765,0.4956
150,Anchor Road near Hotwells rndbt west,51.45044007269122,-2.608676034689369,BTX NO2,Urban Traffic,0.276,0.4909
151,Hotwells Road,51.449732827699066,-2.6115304515639197,NO2,Urban Traffic,0.2729,0.4849
152,Jacobs Wells Road South,51.451818595080134,-2.608147517999857,NO2,Urban Traffic,0.2819,0.492
153,Jacobs Wells road opp Clifton hill,51.454551300168845,-2.6100405386055896,NO2,Urban Traffic,0.2938,0.488
154,Stokes Croft  Ashley Road,51.464294102342414,-2.589872880847064,NO2,Urban Traffic,0.336,0.5305
155,botttom of Arley Hill,51.46576636541995,-2.5903525587963436,BTX NO2,Urban Traffic,0.3424,0.5295
156,Cromwell Road,51.46893498364398,-2.5932153713726276,NO2,Urban Traffic,0.3561,0.5234
157,Zetland Road junction,51.470479111749874,-2.593696172512945,BTX NO2,Urban Traffic,0.3628,0.5224
158,Bishop Road,51.4790687896319,-2.5895885992418624,NO2,Urban Traffic,0.4001,0.5311
159,Dongola Avenue,51.48147836387109,-2.587819570979886,BTX NO2,Urban Traffic,0.4105,0.5348
160,Strathmore Road,51.48665050784872,-2.5856104365558332,NO2,Urban Traffic,0.4329,0.5395
161,Horfield Common,51.48987056573658,-2.5853923656713236,BTX NO2,Urban Traffic,0.4469,0.5399
162,Sports Centre,51.49363278849356,-2.582833269757885,BTX NO2,Urban Traffic,0.4632,0.5453
163,Monks Park Avenue,51.49686892482894,-2.581189104679922,BTX NO2,Urban Traffic,0.4772,0.5488
164,junction Birchwood Road,51.44098708913197,-2.5414589210716474,BTX NO2,Urban Traffic,0.235,0.6324
165,shops,51.440769849666765,-2.5378592840004353,BTX NO2,Urban Traffic,0.2341,0.64
166,Eastwood Crescent,51.4393261585862,-2.5350223849711337,BTX NO2,Urban Traffic,0.2278,0.6459
167,opp Whitmore Avenue,51.43808306527075,-2.5335404589287776,BTX NO2,Urban Traffic,0.2224,0.649
168,Raymill,51.435219313950796,-2.532528997993192,BTX NO2,Urban Traffic,0.21,0.6512
169,Ironmould Lane,51.4264965789615,-2.5267027839653413,BTX NO2,Urban Traffic,0.1722,0.6634
170,Bath Road park  and  ride,51.429044438438964,-2.537894223455063,BTX NO2,Urban Traffic,0.1832,0.6399
171,West Town Lane junction,51.43139201707486,-2.5455314788781265,NO2,Urban Traffic,0.1934,0.6238
172,top of Brislington Hill,51.43245132056657,-2.5459037821250927,NO2,Urban Traffic,0.198,0.623
173,Kenneth Road,51.43397366210998,-2.5491731610372392,BTX NO2,Urban Traffic,0.2046,0.6161
174,Water Lane,51.434021144518226,-2.552468055968623,BTX NO2,Urban Traffic,0.2048,0.6092
175,opp Kensington Park Road,51.436606452256264,-2.5552903374698617,BTX NO2,Urban Traffic,0.216,0.6033
176,opp Kings Road,51.439845495017046,-2.5586533159943396,BTX NO2,Urban Traffic,0.2301,0.5962
177,Arnos Court,51.44149924972232,-2.560687936887823,BTX NO2,Urban Traffic,0.2372,0.5919
178,Totterdown Bridge,51.44347408281017,-2.5725398554331576,BTX NO2,Urban Traffic,0.2458,0.567
179,Higham Street (National),51.44477121501139,-2.579376563407313,BTX NO2,Urban Traffic,0.2514,0.5526
180,Ferndown Close (National),51.49448219200684,-2.656871356302091,BTX NO2,Urban Traffic,0.4669,0.3895
181,Hillcrest (National),51.428097788895435,-2.5671107749246964,BTX NO2,Urban Traffic,0.1791,0.5784
182,Newfoundland Way (National),51.46037215426231,-2.5829850191857417,NO2,Urban Traffic,0.319,0.545
183,No. 6 Borewell WW,51.51035484749122,-2.673801103052679,HM,Urban Industrial,0.5357,0.3538
184,Almondsbury School,51.55309786673107,-2.574897107857412,NOX NO2 NO Meteorology,Urban Background,0.7209,0.562
185,AURN Bristol Centre,51.45720266987896,-2.5856505875977023,NOX NO2 NO CO SO2 PM10,Urban Background,0.3053,0.5394
186,Hannah Moore School,51.45374302471645,-2.577964298082191,Hydrocarbons,Urban Background,0.2903,0.5555
187,Albright and Wilson,51.522136709555554,-2.687207260894234,DUST,Urban Industrial,0.5867,0.3256
188,Tesco forecourt,51.47410548125416,-2.563995632596566,BTX,Urban Industrial,0.3785,0.5849
189,Stapleton2,51.47609980719119,-2.5606076962227853,BTX,Urban Industrial,0.3872,0.5921
190,Eastgate,51.47441581768502,-2.5649065715121577,BTX,Urban Industrial,0.3799,0.583
191,Tesco spot,51.47495966207294,-2.5621199518726083,BTX,Urban Industrial,0.3822,0.5889
192,Sainsbury Ashton3,51.433793358661845,-2.617922002411997,BTX,Urban Industrial,0.2038,0.4714
193,Redland Road,51.46983977172733,-2.5991732807744907,BTX,Urban Industrial,0.3601,0.5109
194,Arnos Court,51.44323606658584,-2.5603926664459955,BTX,Urban Industrial,0.2448,0.5925
195,Stapleton1,51.47694818052962,-2.559941354434898,BTX,Urban Industrial,0.3909,0.5935
196,Castle Cement,51.489758645875845,-2.720090901006503,DUST,Urban Industrial,0.4464,0.2564
197,Blaise Castle House,51.505621914772334,-2.6325082508552082,O3 Meteorology,Urban Background,0.5151,0.4407
198,Brislington Depot,51.44174551496291,-2.5599571567289274,NOX NO2 NO,Urban Background,0.2383,0.5934
199,Little Stoke Parish Hall,51.52570164161562,-2.554039520984241,NOX NO2 NO Meteorology,Urban Background,0.6022,0.6059
200,Terra UK site,51.54264352874578,-2.6675304493142646,NOX NO2 NO Meteorology,Urban Industrial,0.6756,0.367
201,Rupert Street,51.45543159238385,-2.596264050253032,NOX NO2 NO,Urban Traffic,0.2976,0.517
202,Dundry Hill,51.39685218394142,-2.641743669229477,Meteorology,Rural Industrial,0.0437,0.4213
203,Hallen Village,51.51780625434117,-2.6487900032219747,HM,Urban Background,0.5679,0.4065
204,IKEA M32,51.47528354599943,-2.562080742351604,NOX NO2 NO,Urban Traffic,0.3836,0.589
205,Rhone Poulenc,51.51321142263959,-2.69427791057201,DUST,Urban Industrial,0.548,0.3107
206,Rhone Poulenc,51.513832975932715,-2.694085634962042,DUST,Urban Industrial,0.5507,0.3111
207,Rhone Poulenc,51.51346516976958,-2.692422798119754,DUST,Urban Industrial,0.5491,0.3146
208,Old Market,51.45601753036153,-2.583490939638871,NOX NO2 NO PM10,Urban Traffic,0.3001,0.5439
209,Port Health Office,51.5004080864004,-2.7032308485182033,DUST,Urban Industrial,0.4925,0.2919
210,Parson Street School,51.43267429331247,-2.604960010761926,NOX NO2 NO PM2.5,Urban Traffic,0.199,0.4987
211,Poplar Farm,51.512835459672694,-2.6661278902156527,Heavy Metals,Rural Industrial,0.5464,0.37
212,Port Health Office,51.50016507971916,-2.703270314199872,Lead,Urban Industrial,0.4915,0.2918
213,Royal Portbury Docks quayside,51.49383643988876,-2.7149265853494082,DUST,Urban Industrial,0.4641,0.2673
214,Royal Portbury Docks cc,51.493154959408145,-2.7131441706537314,DUST,Urban Industrial,0.4611,0.271
215,Royal Portbury Docks road,51.49210124252707,-2.714899351337794,DUST,Urban Industrial,0.4565,0.2673
216,Blaise Castle House,51.50552324816758,-2.632463661687114,Smoke SO2,Urban Background,0.5147,0.4408
217,Bristol North Baths,51.47482366255687,-2.5916072574763027,Smoke SO2,Urban Background,0.3817,0.5268
218,St. Matthias College,51.483936832668554,-2.5284305603383954,Heavy Metals,Urban Background,0.4212,0.6598
219,St Matthias College,51.48360402905331,-2.528455516980259,Smoke SO2,Urban Background,0.4197,0.6597
220,The Vicarage Avonmouth,51.501290898689376,-2.6984470286069135,DUST,Urban Background,0.4964,0.302
221,Wessex Water Avonmouth,51.51145436742244,-2.673356217088291,Smoke SO2,Urban Industrial,0.5404,0.3548
222,Wessex Water Avonmouth,51.51145387004046,-2.6734426725966607,HM,Urban Industrial,0.5404,0.3546
223,Temple Meads Station,51.448882022379976,-2.584479485631176,NOX NO2 NO,Urban Traffic,0.2692,0.5418
224,South Liberty Lane Travellers Site,51.434492210168344,-2.6317693941922955,BTX NO2,Urban Background,0.2069,0.4423
225,Parson Street School,51.43291229933199,-2.604143194821381,BTX NO2,Urban Traffic,0.2,0.5004
226,West Town Road,51.491379202886165,-2.6898688550583443,NO2,Urban Traffic,0.4534,0.32
227,A4 Portway N of P and R,51.49204866008972,-2.689173221151881,NO2,Urban Traffic,0.4563,0.3215
228,A4 Portway S of P and R,51.489480723728285,-2.6870314607816184,NO2,Urban Traffic,0.4452,0.326
229,A37 N of Airport Rd. Junction,51.42863518374702,-2.5638091876908935,NO2,Urban Traffic,0.1815,0.5853
230,A37 S of Airport Rd.Junction,51.42629801878052,-2.563665160089436,NO2,Urban Traffic,0.1713,0.5856
231,A4174 East of Airport Rd Junction,51.427141411368424,-2.5659194117826285,NO2,Urban Traffic,0.175,0.5809
232,A4174 West of Airport Rd. Junction,51.42844474462466,-2.562267760651724,NO2,Urban Traffic,0.1806,0.5886
233,Parson Street School,51.43197024411613,-2.6054829224691045,NO2,Urban Traffic,0.1959,0.4976
234,Parson St. A38 East,51.431978895851735,-2.607281208505136,NO2,Urban Traffic,0.196,0.4938
235,Parson St. A38 West,51.431670111458416,-2.6113193732668143,NO2,Urban Traffic,0.1946,0.4853
236,Parson St. Bedminster Road,51.43318113478423,-2.6043193881925752,NO2,Urban Traffic,0.2012,0.5001
237,Parson Street Bedminster Down Road,51.431007070114305,-2.6125907995089865,NO2,Urban Traffic,0.1918,0.4827
238,Parson Street Chip Shop,51.43287925934496,-2.6070486343407127,NO2,Urban Traffic,0.1999,0.4943
239,Kingsweston Lane Central,51.50334279755375,-2.6720117439196267,NO2,Urban Traffic,0.5053,0.3576
240,Kingsweston Lane 100m N,51.50415731123273,-2.672657705171317,NO2,Urban Traffic,0.5088,0.3562
241,Kingsweston Lane 200m N,51.505351087492016,-2.673021124738356,NO2,Urban Traffic,0.514,0.3555
242,Kingsweston Lane 100m S,51.50261975655806,-2.671093411221292,NO2,Urban Traffic,0.5021,0.3595
243,Kingsweston Lane 200m S,51.501924504765135,-2.6700314449881337,NO2,Urban Traffic,0.4991,0.3618
244,Lawrence Weston Road Central,51.50865826868867,-2.6606920258666364,NO2,Urban Traffic,0.5283,0.3814
245,Lawrence Weston Road 100m N,51.50918997600058,-2.662068674861417,NO2,Urban Traffic,0.5306,0.3785
246,Lawrence Weston Road 200m N,51.509991797426004,-2.6633772351364327,NO2,Urban Traffic,0.5341,0.3758
247,Lawrence Weston Road 100m S,51.507912470975086,-2.659009722339381,NO2,Urban Traffic,0.5251,0.385
248,Lawrence Weston Road 200m S,51.507308233344894,-2.657732978600183,NO2,Urban Traffic,0.5224,0.3877
249,Merchants Road Hotwells,51.44921078066181,-2.618474212360676,NO2,Urban Traffic,0.2706,0.4703
250,Joy Hill Hotwells,51.45014107539806,-2.621091563748958,NO2,Urban Traffic,0.2747,0.4648
251,Church Hotwells,51.45038007991161,-2.6184036467653207,NO2,Urban Traffic,0.2757,0.4704
252,Almshouses Hotwells,51.44993571329461,-2.622513492952727,NO2,Urban Traffic,0.2738,0.4618
253,Stapleton Road North,51.477492650656565,-2.560783205779347,NO2,Urban Traffic,0.3932,0.5917
254,Stapleton Road Middle,51.47676383417026,-2.5608894411608127,NO2,Urban Traffic,0.3901,0.5915
255,Stapleton Road South,51.47590948761241,-2.560922134953657,NO2,Urban Traffic,0.3864,0.5914
256,Stapleton Road Heath Street,51.47314669991888,-2.561420923562884,NO2,Urban Traffic,0.3744,0.5904
257,Stapleton Road Argyll Street,51.47146707636785,-2.5629264266545206,NO2,Urban Traffic,0.3671,0.5872
258,Gatton Road,51.46782517526481,-2.572296930365433,NO2,Urban Traffic,0.3513,0.5675
259,Baptist Mills School,51.46728086579813,-2.571440722229958,NO2,Urban Traffic,0.349,0.5693
260,Elton Street Wellington Road,51.46030531741056,-2.5801485352061504,NO2,Urban Traffic,0.3187,0.5509
261,Cabot Primary School,51.46280819469029,-2.5795180880279616,NO2,Urban Traffic,0.3296,0.5523
262,Pritchard Street,51.459811899124645,-2.5853384894270692,NO2,Urban Traffic,0.3166,0.54
263,Pilning Fire Station,51.55683349820393,-2.6383560924289795,NOX NO2 NO Meteorology,Rural Industrial,0.7371,0.4284
264,South Liberty Lane RWS,51.42917587897022,-2.6272232834873517,NO2,Urban Traffic,0.1838,0.4519
265,Wells Road,51.4278622149951,-2.5637420738696934,NOX NO2 NO,Urban Traffic,0.1781,0.5855
266,Trailer Portway P&R,51.489991938848746,-2.688781973905141,NOX NO2 NO,Urban Traffic,0.4474,0.3223
267,Old Beaufort Club 1,51.453039739401156,-2.596261673866912,NO2,Urban Traffic,0.2872,0.517
268,Old Beaufort Club 2,51.453003700531646,-2.5962755960764703,NO2,Urban Traffic,0.2871,0.517
269,Old Beaufort Club 3,51.45298571777391,-2.5962753618059233,NO2,Urban Traffic,0.287,0.517
270,B and W 3rd floor,51.45249060502041,-2.5963840439530856,NO2,Urban Traffic,0.2849,0.5168
271,B and W Top Floor,51.45233621043219,-2.596684252937719,NO2,Urban Traffic,0.2842,0.5161
272,B and W Broad Quay,51.452416765797274,-2.5967572605991953,NO2,Urban Traffic,0.2845,0.516
273,B and W Broad Quay2,51.45253365373011,-2.59675878468956,NO2,Urban Traffic,0.285,0.516
274,Marsh St Derelict,51.45267057934382,-2.5963576058524733,NO2,Urban Traffic,0.2856,0.5168
275,Marsh St Derelict Garage,51.45283257089702,-2.5963309332345346,NO2,Urban Traffic,0.2863,0.5169
276,Rupert St Green Box,51.45544964848471,-2.596249892951533,NO2,Urban Traffic,0.2977,0.5171
277,Project House GF,51.45317585683447,-2.5960187872804186,NO2,Urban Traffic,0.2878,0.5175
278,Project House 1F,51.45316686545577,-2.596018670200099,NO2,Urban Traffic,0.2878,0.5175
279,Project House 2F,51.45314888269831,-2.596018436039656,NO2,Urban Traffic,0.2877,0.5175
280,Project House 3F,51.45313989131955,-2.5960183189595316,NO2,Urban Traffic,0.2877,0.5175
281,William Street,51.44445399817981,-2.5906680053871463,NO2,Urban Traffic,0.25,0.5288
282,Whitehouse Street,51.444468722970655,-2.5895314595024126,NO2,Urban Traffic,0.2501,0.5312
283,Avonmouth Primary School,51.49650004190421,-2.6829310686536196,Lead,Urban Background,0.4756,0.3346
284,Bear Pit Railing,51.45949653924294,-2.5908329411308553,NO2,Urban Traffic,0.3152,0.5285
285,Bear Pit Toilet Block,51.4593456474304,-2.590442355418167,NO2,Urban Traffic,0.3146,0.5293
286,Traffic Light Avon House,51.45987701069157,-2.590276490539759,NO2,Urban Traffic,0.3169,0.5296
287,Shop Parade,51.458982867104005,-2.59105660128102,NO2,Urban Traffic,0.313,0.528
288,Bond St. Lamp post,51.4593682026125,-2.5895358309890937,NO2,Urban Traffic,0.3147,0.5312
289,Castle Court forecourt sainsburys,51.44407445295636,-2.559942460245847,BTX,Urban Industrial,0.2484,0.5935
290,Lamppost   16 Ashley Road St. Pauls,51.46637417718384,-2.5784691258443537,NO2,Urban Traffic,0.345,0.5545
291,Facade   383 Church Road Redfield,51.46034470726591,-2.543745984399879,NO2,Urban Traffic,0.3189,0.6276
292,Facade St. Georges Library   Church Road St. George,51.460395725177996,-2.5443799337715585,NO2,Urban Traffic,0.3191,0.6262
293,Facade Ye Olde Flower Shop 218 Church Road St. George,51.459480700860084,-2.549723554862103,NO2,Urban Traffic,0.3152,0.615
294,Facade Haart Estate Agents 755 Fishponds Road Fishponds,51.4807065329419,-2.528940434676714,NO2,Urban Traffic,0.4072,0.6587
295,Lamppost   717 Fishponds Road Fishponds,51.47985525120948,-2.530284180181298,NO2,Urban Traffic,0.4035,0.6559
296,Facade Cafe Culture 597 Fishponds Road Fishponds,51.47717935105245,-2.5373950654560877,NO2,Urban Traffic,0.3919,0.6409
297,Facade   784 Muller Road Fishponds,51.474162843356474,-2.5576178277416295,NO2,Urban Traffic,0.3788,0.5984
298,Lamppost     Russell Town Avenue Redfield,51.45797137360283,-2.562746128663929,NO2,Urban Traffic,0.3086,0.5876
299,Lamppost     Sarah Street Redfield,51.457957022808344,-2.5675966346929537,NO2,Urban Traffic,0.3086,0.5774
300,Lamppost     Cottrell Road \ Muller Road Horfield,51.47527586106861,-2.561807071006131,NO2,Urban Traffic,0.3836,0.5896
301,Lamppost     Glenfrome Road \ Muller Road Horfield,51.47554072759728,-2.5665763518305753,NO2,Urban Traffic,0.3848,0.5795
302,Lamppost     Muller Road Horfield,51.48007338782732,-2.575604172041498,NO2,Urban Traffic,0.4044,0.5605
303,Lamppost     Muller Road \ Downend Road Horfield,51.484989623069794,-2.5796699304440986,NO2,Urban Traffic,0.4257,0.552
304,Lamppost     Muller Road \ Filton Avenue Horfield,51.48834004019875,-2.5821753098498275,NO2,Urban Traffic,0.4402,0.5467
305,Give Way sign  Chesterfield Rd \ Ashley Down Road St. Andrews,51.47302874517212,-2.581951429911825,NO2,Urban Traffic,0.3739,0.5472
306,Lamppost     Ashley Hill St. Pauls,51.46907474789318,-2.579669474517358,NO2,Urban Traffic,0.3567,0.552
307,Lamppost     Hendre Road \ Winterstoke Road Ashton,51.43513272586409,-2.617983049134436,NO2,Urban Traffic,0.2096,0.4713
308,Lamppost     Whiteladies Road \ Cotham Hill Clifton,51.463950422011955,-2.609561568451857,NO2,Urban Traffic,0.3345,0.489
309,Lamppost     M5 Lawrence Weston Road 25m from carriageway Avonmouth,51.50875505096339,-2.6610680828174953,NO2,Urban Traffic,0.5287,0.3806
310,Lamppost     M5 Lawrence Weston Road 50m from carriageway Avonmouth,51.5088873876683,-2.6615167069431593,NO2,Urban Traffic,0.5293,0.3797
311,Monitor     A37 Wells Road Knowle,51.4278622149951,-2.5637420738696934,NO2,Urban Traffic,0.1781,0.5855
312,Monitor     Rupert Street City Centre,51.45544957513415,-2.5962642845403927,NO2,Urban Traffic,0.2977,0.517
313,Monitor     Temple Way Temple Meads,51.44887346258624,-2.5843930343660486,NO2,Urban Traffic,0.2692,0.542
314,Monitor     Bath Road Brislington,51.441754643448974,-2.559928492012364,NO2,Urban Background,0.2383,0.5935
315,Monitor     Trailer Portway Park and Ride,51.489991938848746,-2.688781973905141,NO2,Urban Traffic,0.4474,0.3223
316,Monitor     Castlemead City Centre,51.45721158920809,-2.585665094675146,NO2,Urban Background,0.3053,0.5393
317,Facade   742 Muller Road Fishponds,51.4746663833366,-2.5595101957623103,NO2,Urban Traffic,0.381,0.5944
318,Facade   258 Fishponds Road Fishponds,51.47358075575956,-2.5533056318757437,NO2,Urban Traffic,0.3763,0.6074
319,Lamp post Roundabout poplar way,51.518820957624705,-2.6760305561207276,NO2,Urban Background,0.5723,0.3491
320,Lamp post bridge poplar way east,51.51838326633245,-2.672406458350602,NO2,Urban Background,0.5704,0.3568
321,Lamp post industrial units entrance,51.52065710041124,-2.6725841772049916,NO2,Urban Background,0.5803,0.3564
322,Lamp post bridge poplar way west,51.52138553605933,-2.6787928245592676,NO2,Urban Background,0.5835,0.3433
323,Days Road Kingsland Road,51.45280483093218,-2.5749302467218658,NO2,Urban Background,0.2862,0.5619
324,Days Road Chancery Street,51.45524602213571,-2.5685130354710606,NO2,Urban Background,0.2968,0.5754
325,Days Road Peters Terrace,51.45613581628728,-2.5685960156984726,NO2,Urban Background,0.3007,0.5753
326,Days Road Sarah Street,51.457208163621175,-2.568119932238942,NO2,Urban Background,0.3053,0.5763
327,Days Road Oxford Street,51.45210732770621,-2.575972079893748,NO2,Urban Background,0.2832,0.5597
328,Hartcliffe Hilltop Farm,51.42472462626071,-2.601689946216669,NO2,Urban Background,0.1645,0.5056
329,Hartcliffe Novers Hill,51.4254534425822,-2.5998440677254386,NO2,Urban Background,0.1677,0.5095
330,Hartcliffe Crantock Avenue,51.42425921573714,-2.60648795937793,NO2,Urban Background,0.1625,0.4955
331,Hartcliffe Novers Park Drive 1,51.426716956371294,-2.5989257472096385,NO2,Urban Background,0.1732,0.5114
332,Hartcliffe Novers Park Drive 2,51.42706682909667,-2.5973192698879353,NO2,Urban Background,0.1747,0.5148
333,Hengrove Whitchurch Lane,51.41270450710294,-2.5960087357980983,NO2,Urban Background,0.1124,0.5176
334,Hengrove Hawkfield Road,51.41182921222444,-2.5948469718987397,NO2,Urban Background,0.1086,0.52
335,Hengrove Rowacres,51.414748878538084,-2.57739893573497,NO2,Urban Background,0.1213,0.5567
336,Hengrove Inns Court Drive,51.41700540057298,-2.5919230471259005,NO2,Urban Background,0.1311,0.5262
337,Hartcliffe A4174,51.425286859367525,-2.604257798497759,NO2,Urban Background,0.167,0.5002
338,Hengrove Hengrove Leisure Park,51.41548213449389,-2.5836920272011676,NO2,Urban Background,0.1245,0.5435
339,Hengrove Penrose,51.41811149229388,-2.579296414480027,NO2,Urban Background,0.1359,0.5527
340,153 Muller Road Faï¿½ade,51.48415545636801,-2.579256108996483,NO2,Urban Traffic,0.4221,0.5528
341,M4 J18 Climbing Lane Near Springs Farm,51.50100867912015,-2.366795987602053,NO2,Urban Traffic,0.4951,1.0
342,M4 j19 - 20 widening North East Green Acres Farm,51.52665700249329,-2.5282764498220396,NO2,Urban Traffic,0.6063,0.6601
343,M4 j19 - 20 widening SW1 Palmers Leaze,51.527274396362245,-2.5309360389212516,NO2,Urban Traffic,0.609,0.6545
344,M4 j19 - 20 widening SW1 Ormond Close,51.54190013262317,-2.545439981535278,NO2,Urban Traffic,0.6724,0.624
345,M5 J16 - 17 N Chillington Court,51.53970746010633,-2.5861048647697453,NO2,Urban Traffic,0.6629,0.5384
346,M5 J16 - 17 S Falcon Close,51.53443927767475,-2.5912848238365425,NO2,Urban Traffic,0.64,0.5275
347,M5 J17 - 18 Hallen Hill - Hollywood Lane S of M5,51.526825618231726,-2.613601119492532,NO2,Urban Traffic,0.607,0.4805
348,M5 J19 - 20 Naish Hill - Station Road S of M5,51.47601373149147,-2.7254030589509854,NO2,Urban Traffic,0.3868,0.2452
349,M5 J19 - 20 Tickenham Hill Housing Adjacent to J20,51.43032990334681,-2.841914759125154,NO2,Urban Traffic,0.1888,0.0
350,M5 J19 - 20 Tickenham Hill N of J20,51.439711461628455,-2.8288650535934075,NO2,Urban Traffic,0.2295,0.0275
351,M5 J19 - 20 Tickenham Hill EXTRA GRADIENT,51.44567168294676,-2.8123529902434155,NO2,Urban Traffic,0.2553,0.0622
352,M5 J17 - 18 Hallen Hill EXTRA GRADIENT,51.518030537331704,-2.640722094211748,NO2,Urban Traffic,0.5689,0.4235
353,5102 faï¿½ade,51.46000201860569,-2.5904508343277635,NO2,Urban Traffic,0.3174,0.5293
354,St. Matthias House faï¿½ade,51.45764303127193,-2.583900235979459,NO2,Urban Traffic,0.3072,0.5431
355,Unite faï¿½ade,51.456896172528815,-2.5840058707362235,NO2,Urban Traffic,0.304,0.5428
356,Broad Weir post development,51.45694004613227,-2.5860214525894945,NO2,Urban Traffic,0.3041,0.5386
357,River Street facade 1,51.45850688943252,-2.5819681171197044,NO2,Urban Traffic,0.3109,0.5471
358,River Street facade 2,51.45917689894401,-2.581041038449675,NO2,Urban Traffic,0.3138,0.5491
359,Wellington Road post development,51.45931783011754,-2.5816329704675147,NO2,Urban Traffic,0.3145,0.5478
360,Great George Street lamppost,51.45915328091228,-2.580364235719915,NO2,Urban Traffic,0.3137,0.5505
361,Lamb Street faï¿½ade,51.45789720012195,-2.5798013916761766,NO2,Urban Traffic,0.3083,0.5517
362,Avon Street Temple Way junction post development,51.45313863774818,-2.5837853271705256,NO2,Urban Traffic,0.2877,0.5433
363,123 Newfoundland Street faï¿½ade,51.46149802931238,-2.5807970072165762,NO2,Urban Traffic,0.3239,0.5496
364,St. Paul Street,51.45987152926584,-2.584202125312944,NO2,Urban Traffic,0.3169,0.5424
365,Newfoundland Road Police Station,51.46067252275917,-2.5822547416000647,NOX NO2 NO,Urban Traffic,0.3203,0.5465
366,Hallen,51.514963078862294,-2.6587801260686,Lead,Rural Industrial,0.5556,0.3855
367,A4174 UWE,51.50525652733726,-2.544065382732682,NOX NO2 NO,Urban Traffic,0.5136,0.6269
368,Easton Business Park,51.462655852072366,-2.5684033184437385,NOX NO2 NO,Urban Background,0.3289,0.5757
369,Dundry,51.39685218394142,-2.641743669229477,NOX NO2 NO,Urban Background,0.0437,0.4213
370,Orange Street Faï¿½ade,51.460550117798576,-2.583361534487308,NO2,Urban Traffic,0.3198,0.5442
371,No. 6 Borewell,51.510160730626865,-2.67472047753152,SO2,Urban Industrial,0.5348,0.3519
372,Wessex Water,51.51036018697231,-2.6744352270050524,PM,Urban Industrial,0.5357,0.3525
373,No. 6 Borewell,51.51035985487256,-2.6744928625516136,MET,Urban Industrial,0.5357,0.3524
374,Anstee and Ware,51.506971038836994,-2.697352668971028,HM,Urban Industrial,0.521,0.3043
375,Atwood Drive,51.50713808796197,-2.654401983927133,HM,Urban Background,0.5217,0.3947
376,Sevalco Roadside,51.532068962498826,-2.672320489670088,SO2,Urban Background,0.6298,0.357
377,Start of Cutting Northbound carriageway Hallen Large Lamppost,51.51707903826317,-2.643706476896052,NO2,Urban Traffic,0.5648,0.4172
378,Property Boundary Oakhill Lane M5 South carriageway rear garden,51.51566758641792,-2.645300713288271,NO2,Urban Traffic,0.5587,0.4138
379,Station Road facing Mway closest property to carriageway,51.47578157803396,-2.725140191738102,NO2,Urban Traffic,0.3858,0.2458
380,Station road two doors down from HA-NEW-3,51.47538812437097,-2.7247883769167394,NO2,Urban Traffic,0.3841,0.2465
381,Junction of priory road with station road Lamppost,51.47584754508454,-2.724651678204164,NO2,Urban Traffic,0.3861,0.2468
382,Cole Acre North of M5 over footbridge Lamppost,51.47703721472882,-2.7271040287388106,NO2,Urban Traffic,0.3912,0.2416
383,Substation Post Nearest M5 Station Road,51.47610542325394,-2.7251165368874877,NO2,Urban Traffic,0.3872,0.2458
384,Sevalco North (on site),51.53431197704922,-2.6668894842461484,SO2,Urban Industrial,0.6395,0.3684
385,Shiner's Garage,51.457791685263544,-2.562715138957263,NOX NO2 NO,Urban Traffic,0.3078,0.5876
386,Avonmouth Rd No 28 on facia,51.495997564902645,-2.6842920363711995,NO2,Urban Traffic,0.4734,0.3318
387,facade avonmouth road underpass - house to SE,51.49567263755888,-2.684503231032343,NO2,Urban Traffic,0.472,0.3313
388,Avonmouth Rd No 31 on facia,51.49621458062661,-2.6856205784846443,NO2,Urban Traffic,0.4744,0.329
389,facade house on portway M5 underpass,51.49324696067631,-2.688759231445612,NO2,Urban Traffic,0.4615,0.3224
390,facade west town lane M5 underpass,51.49226680777461,-2.688773214505766,NO2,Urban Traffic,0.4573,0.3223
391,facade ashton road - house closest UP,51.440927732135385,-2.6238730427071917,NO2,Urban Traffic,0.2347,0.4589
392,Bath Rd No 23 lamppost 48 (opp Book Barn),51.44266009106057,-2.569824619558006,NO2,Urban Traffic,0.2423,0.5727
393,Lamp post 48 230 Bath Road,51.44268811519855,-2.569609138020519,NO2,Urban Traffic,0.2424,0.5731
394,shiners garage triplicate QAQC tubes contin,51.45778414182584,-2.562412779657948,NO2,Urban Traffic,0.3078,0.5883
395,Whitehall Rd/Easton Rd lamppost 4TZ,51.46131078275401,-2.5620241957610603,NO2,Urban Traffic,0.3231,0.5891
396,Whitehall Rd lamppost 17 nr juction with Chalks Rd,51.461913113538955,-2.554474273381457,NO2,Urban Traffic,0.3257,0.605
397,lamppost sussex place,51.46686272655781,-2.579684589088057,NO2,Urban Traffic,0.3472,0.5519
398,Cotham Brow/Cheltenham Rd existing site junction,51.468609553541945,-2.593556669745938,NO2,Urban Traffic,0.3547,0.5227
399,facade cotham brow arches elysee guest house,51.46936509537074,-2.59350890929057,NO2,Urban Traffic,0.358,0.5228
400,facade cotham girls school cheltenham rd,51.46774813265903,-2.591429137563103,NO2,Urban Traffic,0.351,0.5272
401,facade 21 bath buildings,51.46625494827584,-2.589754226968212,NO2,Urban Traffic,0.3445,0.5307
402,facade cromwell road west,51.46935454963561,-2.592040248429614,NO2,Urban Traffic,0.358,0.5259
403,Wells Rd bus lane sign just below junction with Knowle Rd,51.44114488211999,-2.5762804340612657,NO2,Urban Traffic,0.2357,0.5591
404,facade junction brecknock road with a37,51.439656464701415,-2.573599895926378,NO2,Urban Traffic,0.2292,0.5647
405,facade junction hengrove road with a37,51.436020608331994,-2.568734550888664,NO2,Urban Traffic,0.2135,0.575
406,Wells Rd - Knowle shopping centre lamppost 41 (outside Miss Millies),51.43202771447131,-2.5651315059211806,NO2,Urban Traffic,0.1962,0.5826
407,St John's Lane No 26 lamppost 15 (just past roundabout),51.44026172830578,-2.582139627451474,NO2,Urban Traffic,0.2319,0.5468
408,Bedminster Down Rd lamppost between Ashton Motors & Plough PH,51.43319095432308,-2.6093544755770486,NO2,Urban Traffic,0.2012,0.4895
409,Parson St lamppost outside Bristol Scuba,51.43359367276595,-2.607993206444486,NO2,Urban Traffic,0.203,0.4923
410,North St/Dean Lane on roundabout sign,51.44150252005292,-2.6016946298198658,NO2,Urban Traffic,0.2372,0.5056
411,North St/Langton Park T junction,51.441161790403015,-2.6032584687699525,NO2,Urban Traffic,0.2358,0.5023
412,facade BRI children's,51.457927964902254,-2.5969298864918815,NO2,Urban Traffic,0.3084,0.5156
413,facade BRI main building,51.45899510887161,-2.5957347363481476,NO2,Urban Traffic,0.3131,0.5181
414,Ashley Rd P sign outside International Market (nr Dalrymple Rd),51.4649558866608,-2.5870166521652482,NO2,Urban Traffic,0.3389,0.5365
415,City Rd/Ashley Rd lamppost No 16,51.46488929614172,-2.5841510378553543,NO2,Urban Traffic,0.3386,0.5425
416,Fishponds Rd lamppost 37 outside PO (just before Oakdene Ave),51.4735398155148,-2.548611365857152,NO2,Urban Traffic,0.3761,0.6173
417,Fishponds Rd/Elmgrove Rd lamppost 53 (outside video centre),51.475959130381696,-2.540735598059096,NO2,Urban Traffic,0.3866,0.6339
418,facade villiers road stapleton road junction,51.46445435847903,-2.5702250470608017,NO2,Urban Traffic,0.3367,0.5718
419,Gaol Ferry Bridge,51.44616268989063,-2.599453193014993,NO2,Urban Traffic,0.2574,0.5103
420,Cannon's Road,51.44940859904364,-2.6012223385964837,NO2,Urban Traffic,0.2715,0.5066
421,16 Lower Ashley Road,51.466373537592624,-2.578598683062464,BTX,Urban Traffic,0.345,0.5542
422,Bristol Scuba,51.433764126145526,-2.6080674045400425,BTX,Urban Traffic,0.2037,0.4922
423,Whitehall Rd/Easton Rd lamppost 4TZ,51.46133837579194,-2.5618949817744006,BTX,Urban Traffic,0.3232,0.5894
424,Old Market,51.45599213461197,-2.5831739784339502,BTX,Urban Traffic,0.3,0.5446
425,Shiners Garage,51.45780164191159,-2.562513749677538,NO2,Urban Traffic,0.3079,0.5881
426,Almondsbury School,51.55309786673107,-2.574897107857412,NO2,Rural Industrial,0.7209,0.562
427,A37 Junction w/ Airport Road,51.4278622149951,-2.5637420738696934,NO2,Urban Traffic,0.1781,0.5855
428,Parson Street School,51.43267429331247,-2.604960010761926,NO2,Urban Traffic,0.199,0.4987
429,Littlestoke Parish Hall,51.52570164161562,-2.554039520984241,NO2,Urban Background,0.6022,0.6059
430,Avon Probation Service,51.46067252275917,-2.5822547416000647,NO2,Urban Traffic,0.3203,0.5465
431,Former Shell Tank Farm,51.535647385204996,-2.6770446319342347,MET,Rural Industrial,0.6453,0.347
432,CREATE Roof,51.447211396059075,-2.622476440420217,RAIN RH TEMP SOLAR,Urban Background,0.262,0.4619
433,13 Passage Road,51.49536288848121,-2.6172552702956153,NO2,Urban Traffic,0.4707,0.4728
434,CH Ramp North,51.46932431032891,-2.6014988721420242,NO2,Urban Traffic,0.3578,0.506
435,Council House Ramp South,51.45194080210739,-2.6019031631453124,NO2,Urban Traffic,0.2825,0.5052
436,Bath Road,51.44253563023834,-2.5713770437173356,NOX NO2 NO,Urban Traffic,0.2417,0.5694
437,Economy Cars,51.44253563023834,-2.5713770437173356,NO2,Urban Traffic,0.2417,0.5694
438,Eastgate Market,51.47353804172928,-2.5697911616503264,NO2,Urban Traffic,0.3761,0.5727
439,Industrial Museum,51.44748651673968,-2.5990531294679786,SO2,Urban Industrial,0.2632,0.5112
440,Hallen Village,51.517644259657565,-2.648816518626915,Lead,Urban Traffic,0.5672,0.4064
441,AURN St Pauls,51.46282818704422,-2.584542173580753,NOX NO2 NO PM2.5 PM10 O3,Urban Background,0.3297,0.5417
442,Exclusively Yours LAR,51.466442766327134,-2.5791466123946045,BTX,Urban Traffic,0.3453,0.5531
443,Teoh's LAR,51.46628795635799,-2.5777194384477204,BTX,Urban Traffic,0.3447,0.5561
444,St. Pauls Day Nursery,51.46282811520338,-2.584556567599703,NO2,Urban Background,0.3297,0.5417
445,Newfoundland Way Police Station,51.46065446842412,-2.5822689060994395,NO2,Urban Traffic,0.3202,0.5465
446,Holesmouth New,51.52163725111761,-2.691105729453576,NO2,Urban Traffic,0.5845,0.3174
447,62 Callington Road,51.43121207021514,-2.5513263855350816,NO2,Urban Traffic,0.1926,0.6116
448,Cheltenham Road \ Station Road,51.46893746332238,-2.59272590022497,NO2,Urban Traffic,0.3561,0.5245
449,Cheltenham Road \ Station Road,51.46893746332238,-2.59272590022497,NOX NO2 NO,Urban Traffic,0.3561,0.5245
450,Millpond School Fence,51.467216454273306,-2.5717422417213625,NO2,Urban Traffic,0.3487,0.5686
451,Millpond School play area,51.46700094588352,-2.5716819650154132,NO2,Urban Traffic,0.3478,0.5688
452,Fishponds Road,51.478043445807764,-2.5352309297907847,NOX NO2 NO,Urban Traffic,0.3956,0.6455
453,Fishponds Road,51.478061493831255,-2.5352167419015728,NO2,Urban Traffic,0.3957,0.6455
454,North Street School fence,51.44279157952951,-2.6148912161201765,NO2,Urban Traffic,0.2428,0.4778
455,Savanna coffee drainpipe,51.44198133281036,-2.613369622751169,NO2,Urban Traffic,0.2393,0.481
456,Strada Exeter Road,51.44122482425468,-2.6118920233717327,NO2,Urban Traffic,0.236,0.4841
457,faï¿½ade of North Street near Myrtle Street,51.44025620174544,-2.607980164508629,NO2,Urban Traffic,0.2318,0.4924
458,Lamppost corner park avenue,51.43756233172123,-2.5843497522955303,NO2,Urban Traffic,0.2202,0.5421
459,Victoria Park Primary,51.43649126588975,-2.5881630637026727,NO2,Urban Traffic,0.2155,0.5341
460,property faï¿½ade nr. Paultow Road,51.43647518379148,-2.591356789217074,NO2,Urban Traffic,0.2154,0.5274
461,Jamiesons Autos,51.438999373728244,-2.602395775076308,NO2,Urban Traffic,0.2264,0.5041
462,B&G Snax West St,51.43755190496801,-2.6041177053697546,NO2,Urban Traffic,0.2201,0.5005
463,Martial Arts West Street,51.436239789177996,-2.6057406035876896,NO2,Urban Traffic,0.2144,0.4971
464,18 Morton Street,51.457370072474056,-2.564379621260832,NO2,Urban Traffic,0.306,0.5841
465,Elmgrove Ave,51.46315360567412,-2.564004550669488,NO2,Urban Traffic,0.3311,0.5849
466,rear 32 st marks grove,51.46751111167392,-2.5666063713960066,NO2,Urban Traffic,0.35,0.5795
467,T shirt Shop W. Town Lane,51.43174624700053,-2.546700896652963,NO2,Urban Traffic,0.195,0.6213
468,cycle sign lamppost,51.43168960184672,-2.5492031928592462,NO2,Urban Traffic,0.1947,0.6161
469,Halston Drive,51.46326690055647,-2.581308885086421,NO2,Urban Traffic,0.3316,0.5485
470,CREATE Centre Roof,51.447211396059075,-2.622476440420217,O3,Urban Background,0.262,0.4619
471,Avonmouth Road - Lampost (20) Opposite Number Hse No 45,51.49676769928482,-2.6863635802620007,NO2,Urban Traffic,0.4768,0.3274
472,Avonmouth Road - Lampost (19) Opposite Hse No 37,51.49654580172218,-2.6858704558143396,NO2,Urban Traffic,0.4758,0.3284
473,Avonmouth Road - School Sign Opposite Hse No 16,51.49569415411049,-2.6838985364230754,NO2,Urban Traffic,0.4721,0.3326
474,Avonmouth Road - Telegraph Pole Opposite Hse No 4,51.49536435842276,-2.6834038105657534,NO2,Urban Traffic,0.4707,0.3336
475,Barracks's Lane - Telegraph Pole No 6. End of Lane Left Hand Side,51.49767697255328,-2.6815513502054493,NO2,Urban Traffic,0.4807,0.3375
476,Junction 3 Millpond Street,51.46650542578656,-2.573720042158263,NO2,Urban Traffic,0.3456,0.5645
477,Junction 3 Easton Way,51.46617905883684,-2.574263006082236,NO2,Urban Traffic,0.3442,0.5633
478,Avonmouth Road Outside No 12,51.49560542500961,-2.6836955315396236,NO2,Urban Traffic,0.4717,0.333
479,Avon School Barrack's Lane,51.49597816222333,-2.682995268806996,NO2,Urban Traffic,0.4733,0.3345
480,Avonmouth Road Outside No 76,51.49467778841232,-2.682413977865146,NO2,Urban Traffic,0.4677,0.3357
481,On 1 way sign at bottom of Wellington Hill,51.48712774798134,-2.585472513480092,NO2,Urban Traffic,0.435,0.5397
482,No 67 Filton Avenue on wall facing Muller Rd,51.4883222013051,-2.5821462768020997,NO2,Urban Traffic,0.4402,0.5467
483,Muller Road - Adjacent to Darnley Avenue,51.48914084713158,-2.583870682260878,NO2,Urban Traffic,0.4437,0.5431
484,On green fence surrounding Western Power substation (?) adjacent to No.1 Dorian Road,51.493531683343754,-2.586879688923095,NO2,Urban Traffic,0.4627,0.5368
485,385 Church Road Redfield,51.460289162918656,-2.544090781580283,NO2,Urban Traffic,0.3187,0.6268
486,20 Ashley Road,51.46468253247841,-2.587732929554003,NO2,Urban Traffic,0.3377,0.535
487,Hungerford Road,51.42648063621701,-2.543991251704428,NO2,Urban Traffic,0.1721,0.6271
488,Temple Way Nox site,51.45794830716138,-2.583990482463602,NO2,Urban Traffic,0.3085,0.5429
489,Temple Way,51.45794830716138,-2.583990482463602,NOX NO2 NO PM10,Urban Traffic,0.3085,0.5429
490,Colston Avenue,51.45526776649955,-2.5966505128659763,NOX NO2 NO,Urban Traffic,0.2969,0.5162
491,Co-located Colston Ave,51.45526776649955,-2.5966505128659763,NO2,Urban Traffic,0.2969,0.5162
492,Sea mills pharmacy no stopping sign,51.48480185279275,-2.6497908338890026,NO2,Urban Background,0.4249,0.4044
493,Avonmouth primary,51.495173511563195,-2.6898831411937025,NO2,Urban Background,0.4699,0.32
494,Henbury school,51.50921230725529,-2.6303243563445564,NO2,Urban Traffic,0.5307,0.4453
495,Woodstock school,51.50655371516105,-2.629783430942771,NO2,Urban Background,0.5192,0.4465
496,Blaise school,51.50750728266908,-2.624652458927386,NO2,Urban Traffic,0.5233,0.4573
497,Orchard school,51.4989730974122,-2.5793430830237836,NO2,Urban Traffic,0.4863,0.5526
498,Filton avenue primary,51.490371718185635,-2.576799798213823,NO2,Urban Traffic,0.449,0.558
499,Ashley down primary,51.48364722961979,-2.583829408610143,NO2,Urban Traffic,0.4199,0.5432
500,Sefton park,51.47423640172697,-2.5813908787246773,NO2,Urban Traffic,0.3791,0.5483
501,Colston girls,51.46736238958165,-2.5912513780743844,NO2,Urban Traffic,0.3493,0.5276
502,Cabot primary,51.462760596342285,-2.5818638560995995,NO2,Urban Background,0.3294,0.5473
503,St. Barnabas,51.46732157153023,-2.5814467748136782,NO2,Urban Background,0.3491,0.5482
504,St. Werburghs park nursery,51.471402904817076,-2.5724857261713465,NO2,Urban Traffic,0.3668,0.5671
505,Fairfield high school,51.47558920828893,-2.5714150557404785,NO2,Urban Background,0.385,0.5693
506,Glenfrome primary,51.47835799007666,-2.5640913801551366,NO2,Urban Background,0.397,0.5847
507,Fishponds c of e,51.4792344163859,-2.5343377014595125,NO2,Urban Traffic,0.4008,0.6474
508,Briarwood school,51.47777996966594,-2.521865355505198,NO2,Urban Traffic,0.3945,0.6736
509,St. Joseph's RC primary,51.47353241666064,-2.526668912316391,NO2,Urban Traffic,0.3761,0.6635
510,Chester park infants,51.47455813656555,-2.530510667359974,NO2,Urban Traffic,0.3805,0.6554
511,May park primary,51.47213944436014,-2.557679495886781,NO2,Urban Background,0.37,0.5982
512,Bannerman road,51.4642221150352,-2.566191426976658,NO2,Urban Background,0.3357,0.5803
513,City academy,51.45974210405259,-2.562883006614892,NO2,Urban Traffic,0.3163,0.5873
514,Summer hill a420,51.46090213569729,-2.5418093951628586,NO2,Urban Traffic,0.3213,0.6316
515,Summer hill Plummers hill,51.46147631172739,-2.542089705189822,NO2,Urban Traffic,0.3238,0.6311
516,St patricks,51.457293228032306,-2.5521729857590243,NO2,Urban Traffic,0.3057,0.6098
517,Redfield educate together,51.45792920406009,-2.554598776113057,NO2,Urban Traffic,0.3084,0.6047
518,Bristol futures academy,51.45490557378862,-2.560779925616985,NO2,Urban Traffic,0.2953,0.5917
519,Barton Hill Academy,51.45343767622517,-2.5649933356186434,NO2,Urban Traffic,0.289,0.5828
520,Easton c of e academy,51.46076715288108,-2.5721799853271246,NO2,Urban Background,0.3207,0.5677
521,St. Nicholas of tolentine,51.459242997566676,-2.5767669457494122,NO2,Urban Traffic,0.3141,0.5581
522,Hannah more front,51.45376124074299,-2.5797347323788196,NO2,Urban Traffic,0.2904,0.5518
523,Hillcrest primary,51.43954351904976,-2.5709511045365345,NO2,Urban Traffic,0.2287,0.5703
524,West town lane academy,51.42834580012636,-2.554700677255389,NO2,Urban Traffic,0.1802,0.6045
525,St Mary redcliffe secondary,51.44562260756899,-2.5871576177863136,NO2,Urban Traffic,0.2551,0.5362
526,St Mary redcliffe primary,51.44211450132926,-2.5892135056116676,NO2,Urban Background,0.2399,0.5319
527,Dalby avenue,51.440777055952225,-2.595872410436526,NO2,Urban Traffic,0.2341,0.5179
528,Dalby avenue church lane,51.43998886298143,-2.5970420241342005,NO2,Urban Traffic,0.2307,0.5154
529,Compass point,51.438156712614614,-2.6053916669069346,NO2,Urban Traffic,0.2227,0.4978
530,Holy cross primary,51.44331251552865,-2.599416069641839,NO2,Urban Traffic,0.2451,0.5104
531,Southville primary,51.44339382312531,-2.6045826557430516,NO2,Urban Traffic,0.2454,0.4995
532,Southville primary Myrtle street,51.44091790915277,-2.608679482841795,NO2,Urban Background,0.2347,0.4909
533,Ashton gate primary,51.44291624437893,-2.615123101973412,NO2,Urban Traffic,0.2434,0.4773
534,Ashton park school,51.44022596218519,-2.628985406654823,NO2,Urban Traffic,0.2317,0.4482
535,HotWells primary,51.45077869043143,-2.6212441418240378,NO2,Urban Background,0.2774,0.4645
536,St George's primary,51.45136157162749,-2.6061122376724253,NO2,Urban Background,0.28,0.4963
537,St Michaels on the mount,51.45625352668329,-2.599066967046978,NO2,Urban Background,0.3012,0.5111
538,Real sounds studios silver street,51.45748214452723,-2.5926492752523878,NO2,Urban Traffic,0.3065,0.5246
539,Cathedral School,51.450957741514515,-2.600724540336424,NO2,Urban Traffic,0.2782,0.5076
540,Cod Almighty downpipe,51.50099423211071,-2.5923349035544354,NO2,Urban Traffic,0.4951,0.5253
541,Bell Hill,51.47997017468684,-2.559762445520189,NO2,Urban Traffic,0.404,0.5939
542,Glenfrome Road lamppost by M32 Bridge,51.47867053420647,-2.560783285070573,NO2,Urban Traffic,0.3983,0.5917
543,Nelson Street,51.45642226967237,-2.5941899897553924,NO2,Urban Traffic,0.3019,0.5214
544,420 Hotwell Road A4,51.45061586184657,-2.624810968749629,NO2,Urban Traffic,0.2767,0.4569
545,South Eastern stair access Plimsoll Bridge,51.448055722812825,-2.622646217021777,NO2,Urban Traffic,0.2656,0.4615
546,Talbot Road 20mph lamppost,51.43382383583872,-2.5599606006431905,NO2,Urban Traffic,0.204,0.5934
547,Coronation Road Walter Street No Entry,51.44470161248596,-2.61588088547371,NO2,Urban Traffic,0.2511,0.4757
548,Except local buses sign Blackmoors Lane,51.441528850604705,-2.6274781498614814,NO2,Urban Traffic,0.2374,0.4513
549,Lamppost outside BRI CAZ,51.458407590101004,-2.596331613604048,NO2,Urban Traffic,0.3105,0.5169
550,Lamppost opposite BRI CAZ,51.45833734587732,-2.5959996466090205,NO2,Urban Traffic,0.3102,0.5176
551,Lamp post near Queens Head pub South Bristol link,51.41112170375092,-2.62023172171774,NO2,Urban Traffic,0.1056,0.4666
552, Lamp post at junction with Highridge rd. near Cox brothers garage. South Bristol link.,51.41219148946778,-2.6253367093977933,NO2,Urban Traffic,0.1102,0.4558
553,Westbury on Trym High Street Lamp post by Athena restaurant,51.49438633026163,-2.6182936794186684,NO2,Urban Traffic,0.4664,0.4707
554,A4018 Lamp post by layby before roundabout for Crow Ln/ Knole Ln,51.50920745733689,-2.617715761885049,NO2,Urban Traffic,0.5307,0.4719
555,AQ Mesh Temple Way,51.45794830716138,-2.583990482463602,PM10 PM2.5,Urban Traffic,0.3085,0.5429
556,Muller road/ Glenfrome road junction north,51.47569225477466,-2.566851812322687,NO2,Urban Traffic,0.3854,0.5789
557,Traffic light on the corner of Shaldon road,51.47955573674317,-2.5748200206773375,NO2,Urban Traffic,0.4022,0.5622
558,Lampost on North corner of Draycott road junction with Muller road.,51.48319208473943,-2.5795175227955784,NO2,Urban Traffic,0.4179,0.5523
559,Muller road junction with Downend road lampost north of the junction.,51.48546621546482,-2.5796615673756698,NO2,Urban Traffic,0.4278,0.552
560,Muller road junction with Downend road traffic light to the south of the junction.,51.48521453963713,-2.5796439761625316,NO2,Urban Traffic,0.4267,0.552
561,St. Werburghs,51.47434092102542,-2.576611807004978,NO2 PM10 PM2.5 CO O3 Temperature RH,Urban Background,0.3796,0.5584
562,Bristol Airport,51.38676459040267,-2.7041309451788846,NOX NO2 NO PM10,Suburban Industrial,0.0,0.29
563,"Whiteladies road, on loading sign next to Redland library",51.465437508639766,-2.6106323593411584,NO2,Urban Traffic,0.341,0.4868
564,Baldwin Street traffic light outside domino's,51.45339186988202,-2.5959784246041737,NO2,Urban Traffic,0.2888,0.5176
565,"Baldwin Street lamp post by cycle way, opp St Stephens St",51.453336765165844,-2.594437783480958,NO2,Urban Traffic,0.2885,0.5209
566,High St lamp post outside Wards solicitors,51.454309282152614,-2.5923923333976444,NO2,Urban Traffic,0.2927,0.5252
567,Church Road-CAZ-Outside Gurdwara,51.45965072530376,-2.549898325547875,NO2,Urban Traffic,0.3159,0.6146
568,Church Road-CAZ-Lamppost,51.45995848086373,-2.545598213891304,NO2,Urban Traffic,0.3172,0.6237
569,Marlborough St-CAZ-Lamppost opposite hosp,51.459214344431686,-2.5950610851309808,NO2,Urban Traffic,0.314,0.5196
570,Marlborough St-CAZ-Lamppost by coach station,51.45963920005343,-2.5928499447654736,NO2,Urban Traffic,0.3158,0.5242
571,Rupert St-CAZ-Post outside fire station,51.45747118405416,-2.5930377510165115,NO2,Urban Traffic,0.3064,0.5238
572,Rupert St-CAZ-Post outside police station,51.45753244526991,-2.593369589576211,NO2,Urban Traffic,0.3067,0.5231
573,Rupert St-CAZ-Post outside Fusion Tower,51.45694990864963,-2.5947581675443407,NO2,Urban Traffic,0.3042,0.5202
574,Park St-CAZ-Lamppost by Guild,51.454875054048884,-2.6030932035994963,NO2,Urban Traffic,0.2952,0.5027
575,Park St-CAZ-Lamppost by Agora,51.45458755261621,-2.6030462329701183,NO2,Urban Traffic,0.294,0.5028
576,Baldwin St-CAZ-Lamppost by Yelland House,51.45353530670804,-2.594296442441514,NO2,Urban Traffic,0.2894,0.5212
577,Baldwin St-CAZ-Drainpipe on building,51.45328792994502,-2.5951999144385454,NO2,Urban Traffic,0.2883,0.5193
578,Marlborough St-CAZ-On sign leg,51.45992261842625,-2.5937028738748245,NO2,Urban Traffic,0.3171,0.5224
579,Marlborough St-CAZ-Post by bollards,51.459765379726626,-2.5945644728563,NO2,Urban Traffic,0.3164,0.5206
580,Marlborough St-CAZ-Post,51.45964067037348,-2.59433254559427,NO2,Urban Traffic,0.3159,0.5211
581,Upper Maudlin St-CAZ-Crossing by BRI,51.45813762889828,-2.596371276056786,NO2,Urban Traffic,0.3093,0.5168
582,Upper Maudlin St-CAZ-Post by BRI,51.45760332078701,-2.5971127641203378,NO2,Urban Traffic,0.307,0.5152
583,Lower Park Row-CAZ-Post by Art shop,51.45655517557038,-2.598106591321577,NO2,Urban Traffic,0.3025,0.5132
584,Lower Park Row-CAZ-Post after OTR,51.456220286687454,-2.598533997606408,NO2,Urban Traffic,0.301,0.5123
585,Park Row-CAZ-Lamppost by museum,51.455522128733605,-2.5996618764920316,NO2,Urban Traffic,0.298,0.5099
586,Park Row-CAZ-Post by house,51.455556028018044,-2.6000653132718785,NO2,Urban Traffic,0.2981,0.509
587,Queens Road-CAZ-Lamppost by UoB,51.45605218353791,-2.6049942263652897,NO2,Urban Traffic,0.3003,0.4987
588,Park St-CAZ-Lamppost by bike stands,51.45552719362496,-2.6039222021981017,NO2,Urban Traffic,0.298,0.5009
589,Park St-CAZ-Lamppost by City Hall,51.45315833731595,-2.601199589033542,NO2,Urban Traffic,0.2878,0.5066
590,College Green-CAZ-Lamppost opp Denmark St,51.45281645509185,-2.5977267113687077,NO2,Urban Traffic,0.2863,0.514
591,Anchor Road-CAZ-Lamppost,51.45135293174533,-2.5990603605117784,NO2,Urban Traffic,0.2799,0.5111
592,Lewins Mead-CAZ-Post by Evans Cycles,51.4573450900461,-2.5948496613473018,NO2,Urban Traffic,0.3059,0.52
593,Lewins Mead-CAZ-Post by PMT,51.45754655684441,-2.5941326158611657,NO2,Urban Traffic,0.3068,0.5215
594,Rupert St-CAZ-Post by Courtrooms,51.45650530459243,-2.5955440010482196,NO2,Urban Traffic,0.3023,0.5185
595,Victoria Street-CAZ-No entry sign,51.45272255859053,-2.589651799879907,NO2,Urban Traffic,0.2859,0.5309
596,Counterslip-CAZ-Drainpipe on building,51.452933637298806,-2.5888054076467677,NO2,Urban Traffic,0.2868,0.5327
597,Temple Gate-CAZ-Lamppost,51.44814171947229,-2.5832756816074984,NO2,Urban Traffic,0.266,0.5444
598,Bath Road-CAZ-Lamppost or sign,51.44658992960736,-2.5807089889873667,NO2,Urban Traffic,0.2593,0.5498
599,Wells Road-CAZ-Lamppost,51.44149913036777,-2.577378418343403,NO2,Urban Traffic,0.2372,0.5568
600,Winterstoke Road-CAZ-Lamppost,51.434309293341215,-2.613857696558156,NO2,Urban Traffic,0.2061,0.48
601,Newfoundland St-CAZ-Lamppost by layby,51.45950800085905,-2.5885588452778237,NO2,Urban Traffic,0.3153,0.5332
602,Newfoundland St-CAZ-Lamppost by crossing,51.45948898025356,-2.586975266839488,NO2,Urban Traffic,0.3152,0.5366
603,Temple Way-CAZ-Sign by Champ Square,51.457884936599974,-2.5840760350665817,NO2,Urban Traffic,0.3082,0.5427
604,Newfoundland Way-CAZ-Lamppost by petrol station,51.46071848159792,-2.582053807295406,NO2,Urban Traffic,0.3205,0.5469
605,Newfoundland Way-CAZ-Road sign,51.460985521353635,-2.5807905045219477,NO2,Urban Traffic,0.3217,0.5496
606,Houlton St-CAZ-30mph sign,51.45981228421031,-2.581653647484718,NO2,Urban Traffic,0.3166,0.5478
607,Cheltenham Rd-CAZ-Sign opp Tesco,51.465163870526716,-2.590359171464564,NO2,Urban Traffic,0.3398,0.5295
608,Cheltenham Rd-CAZ-Lamppost by Bite,51.464824593701444,-2.589879727669806,NO2,Urban Traffic,0.3383,0.5305
609,Lower Ashley Rd-CAZ-Lamppost by grass,51.466219075560744,-2.577099537437101,NO2,Urban Traffic,0.3444,0.5574
610,Gloucester Rd-CAZ-Lamppost by bus stop,51.481467856135964,-2.588121858138267,NO2,Urban Traffic,0.4105,0.5342
611,Bedminster Rd-CAZ-Lamppost opp school,51.43285351616177,-2.6050774743704452,NO2,Urban Traffic,0.1998,0.4985
612,Bedminster Rd-CAZ-Lamppost by school,51.432810422985916,-2.604717264179191,NO2,Urban Traffic,0.1996,0.4992
613,Bedminster Rd-CAZ-Post opp Van Sales,51.4319143143871,-2.607596827092998,NO2,Urban Traffic,0.1957,0.4932
614,Bedminster Rd-CAZ-Lamppost by Van Sales,51.43204798146023,-2.6078287722482165,NO2,Urban Traffic,0.1963,0.4927
615,Bedminster Rd-CAZ-Post,51.43160329673951,-2.610340280252158,NO2,Urban Traffic,0.1943,0.4874
616,Parson St-CAZ-Lamppost by Station,51.4333417022904,-2.60803300831531,NO2,Urban Traffic,0.2019,0.4923
617,Lower Ashley Rd-CAZ-Lamppost by Geo Jones,51.466553009174774,-2.5786729323294484,NO2,Urban Traffic,0.3458,0.5541
618,Lower Ashley Rd-CAZ-Lamppost opp London Rd,51.466510681230226,-2.5781397382232036,NO2,Urban Traffic,0.3456,0.5552
619,Bedminster Down Rd-CAZ-Lamppost by billboard,51.43108972221608,-2.612261044986583,NO2,Urban Traffic,0.1921,0.4834
620,Bedminster Down Rd-CAZ-Roadsign by Winterstoke,51.43335219086285,-2.6094717102212868,NO2,Urban Traffic,0.2019,0.4892
621,West St-CAZ-Lamppost by Argus Rd,51.437001101954216,-2.6045708770368377,NO2,Urban Traffic,0.2177,0.4995
622,West St-CAZ-Lamppost opp Jamiesons,51.43913356454341,-2.6025270102131235,NO2,Urban Traffic,0.227,0.5038
623,Bedminster Parade-CAZ-Lamppost by William Hill,51.44314829878011,-2.5945937270862727,NO2,Urban Traffic,0.2444,0.5205
624,York Rd-CAZ-Sign after bridge,51.445159660824146,-2.5898137154059455,NO2,Urban Traffic,0.2531,0.5306
625,Bath Rd-CAZ-Lamppost by Bus Lane,51.44410463096056,-2.5777997410844105,NO2,Urban Traffic,0.2485,0.5559
626,Bath Rd-CAZ-Lamppost by Kings Road,51.44016499566909,-2.5595348886026033,NO2,Urban Traffic,0.2314,0.5943
627,A4044 Roundabout-CAZ-Lamppost,51.4558156266086,-2.5843087483805456,NO2,Urban Traffic,0.2993,0.5422
628,Victoria St-CAZ-Lamppost opp Mitchell Lane,51.45121705458138,-2.5868405614088217,NO2,Urban Traffic,0.2793,0.5369
629,Lamb Street-CAZ-One way sign by Church,51.45741016845125,-2.5800974914236816,NO2,Urban Traffic,0.3062,0.5511
630,Stokes Croft-CAZ-Lamppost,51.46354745497871,-2.589935221293238,NO2,Urban Traffic,0.3328,0.5304
631,Ashley Road-CAZ-Lamppost opp Drumd Rd,51.46488991256636,-2.5876204290367606,NO2,Urban Traffic,0.3386,0.5352
632,Sussex Place-CAZ-Lamppost,51.4671406039893,-2.5798608651424173,NO2,Urban Traffic,0.3484,0.5516
633,Ashley Down Rd-CAZ-Lamppost,51.47343327077164,-2.581970986679813,NO2,Urban Traffic,0.3756,0.5471
634,Gloucester Rd-CAZ-Lamppost opp Baths,51.47479850732866,-2.591246955687315,NO2,Urban Traffic,0.3815,0.5276
635,Cheltenham Rd-CAZ-Post by Papa Johns,51.467318088714535,-2.5911212342882273,NO2,Urban Traffic,0.3491,0.5279
636,Merchants Rd-CAZ-Lamppost by house,51.448950494196765,-2.618384355373911,NO2,Urban Traffic,0.2695,0.4705
637,Wells Rd-CAZ-Lamppost by Red Lion Carpets,51.42930993853168,-2.563731245695491,NO2,Urban Traffic,0.1844,0.5855
638,Bath Rd-CAZ-Lamppost,51.43317573242587,-2.54674680850237,NO2,Urban Traffic,0.2011,0.6213
639,Wells Rd-CAZ-Lamppost,51.4316686195837,-2.565011964197827,NO2,Urban Traffic,0.1946,0.5828
640,Church Rd-CAZ-Post by Barwaaqo Cafe,51.46279026882979,-2.561011290497011,NO2,Urban Traffic,0.3295,0.5912
641,Whitehall Rd-CAZ-Lamppost by house,51.46176481387968,-2.5610941000780456,NO2,Urban Traffic,0.3251,0.5911
642,Stapleton Rd-CAZ-Lamppost by house,51.46478920784946,-2.569782948665345,NO2,Urban Traffic,0.3382,0.5728
643,Mina Rd-CAZ-Lamppost by house,51.46718622693244,-2.5742468403236165,NO2,Urban Traffic,0.3486,0.5634
644,Muller Rd-CAZ-Lamppost opp LA DT,51.47445866160491,-2.5578086228017005,NO2,Urban Traffic,0.3801,0.598
645,Stapleton Rd-CAZ-Lamppost,51.47662883257064,-2.560916579834494,NO2,Urban Traffic,0.3895,0.5914
646,Fishponds Rd-CAZ-Lamppost,51.47379715072091,-2.5531786715352007,NO2,Urban Traffic,0.3772,0.6077
647,Fishponds Rd-CAZ-Lamppost,51.47998463997244,-2.529508082105169,NO2,Urban Traffic,0.404,0.6575
648,Muller Rd-CAZ-Lamppost,51.48782556445269,-2.5807572801207876,NO2,Urban Traffic,0.438,0.5497
649,Muller Rd-CAZ-Lamppost,51.47540718023556,-2.564429271098372,NO2,Urban Traffic,0.3842,0.584
650,Linden Rd-CAZ-Lamppost by house,51.478059732516925,-2.605847603110864,NO2,Urban Traffic,0.3957,0.4969
651,Linden Rd-CAZ-Lamppost by house,51.47888439506744,-2.6080761733712037,NO2,Urban Traffic,0.3993,0.4922
652,Whiteladies Rd-CAZ-Lamppost after petrol station,51.47019957370065,-2.6147562148935735,NO2,Urban Traffic,0.3616,0.4781
653,Westbury Rd-CAZ-Lamppost by hospital,51.47227281330897,-2.6154896506697063,NO2,Urban Traffic,0.3706,0.4766
654,Upper Maudlin St-CAZ-Lamppost opp BRI,51.458102616971566,-2.5961837047034515,NO2,Urban Traffic,0.3092,0.5172
655,Upper Maudlin St-CAZ-Lamppost by BRI,51.45828930818225,-2.596603549312594,NO2,Urban Traffic,0.31,0.5163
656,College Green-CAZ-Post by Toni&Guy,51.45267923044324,-2.5981854495344083,NO2,Urban Traffic,0.2857,0.513
657,Clift House Road-CAZ-Telegraph pole clift house road,51.4444105161918,-2.6182223803168223,NO2,Urban Traffic,0.2498,0.4708
658,Temple Way Bridge-CAZ-Lamppost Temple Way Bridge,51.45230992204151,-2.5840770003758515,NO2,Urban Traffic,0.2841,0.5427
659,Bristol Hill-CAZ-Lamppost Bristol Hill,51.433908109559994,-2.5516467041877102,NO2,Urban Traffic,0.2043,0.6109
660,North View Downs Park West,51.47936926993521,-2.6150956255950404,NO2,Urban Traffic,0.4014,0.4774
661,Marlborough Street,51.45914050955768,-2.5954343626644922,NOX NO2 NO,Urban Traffic,0.3137,0.5188
662,Marlborough Street - co - located,51.45914050955768,-2.5954343626644922,NO2,Urban Traffic,0.3137,0.5188
663,Troopers Hill Opposite No 30,51.45670441882739,-2.5316557905583377,NO2,Urban Background,0.3031,0.653
664,Netham Lock Junction,51.45222321981322,-2.5537958735168855,NO2,Urban Background,0.2837,0.6064
665,Blackswarth Road Opposite St Patrick's School,51.4572933633816,-2.5521442003864774,NO2,Urban Background,0.3057,0.6099
666,Beaufort Road Opposite No 109,51.45784879380862,-2.546810895237937,NO2,Urban Background,0.3081,0.6211
667,Victoria Avenue Opposite No 90,51.45719045887098,-2.5586919915939825,NO2,Urban Background,0.3052,0.5961
668,Avonvale Road Opposite Bristol Futures Academy,51.45494167652848,-2.560751580989755,NO2,Urban Background,0.2955,0.5918
669,Morely Street/Bright Street Ped Crossing,51.45636020313618,-2.563086212225398,NO2,Urban Background,0.3016,0.5869
670,Russel Town Avenue Opposite Pheonix Social Enterprise Club,51.45949000423615,-2.562951881433163,NO2,Urban Background,0.3152,0.5871
671,Church Road Miss Millies,51.45878738771557,-2.557559906709684,NO2,Urban Traffic,0.3122,0.5985
672,Victoria Parade Opposite No 39,51.46020528130949,-2.5562528847580266,NO2,Urban Background,0.3183,0.6012
673,Lyppiatt Road Opposite No 25,51.46026016565202,-2.554151969693373,NO2,Urban Background,0.3185,0.6057
674,Stapleton Road HE,51.476790807031186,-2.560889772766397,NO2,Urban Traffic,0.3902,0.5915
675,Glenfrome Road stonewall LP HE,51.47867053420647,-2.560783285070573,NO2,Urban Traffic,0.3983,0.5917
676,B4058 East of M32 stonewall LP HE,51.47997923425112,-2.5597481564664184,NO2,Urban Traffic,0.404,0.5939
677,Napier Road 20mph LP HE,51.471317016368374,-2.564220362755663,NO2,Urban Traffic,0.3665,0.5845
678,505 Stapleton Road Easton LP HE,51.471691852568206,-2.562929196868186,NO2,Urban Traffic,0.3681,0.5872
679,Stapleton Rd Freemantle rd LP HE,51.473643472930775,-2.5609518873021107,NO2,Urban Traffic,0.3765,0.5914
680,Stapleton Rd Heath St Cycles sign HE,51.47307484017571,-2.5614056419698326,NO2,Urban Traffic,0.3741,0.5904
681,New Gatton Rd barrier LP HE,51.4680311194439,-2.5706294928507276,NO2,Urban Traffic,0.3522,0.571
682,Stairway bridge M32 J3 HE,51.46752537786026,-2.571083866717215,NO2,Urban Traffic,0.35,0.57
683,Fox Rd 26 LP HE,51.46745961497519,-2.5698161521506373,NO2,Urban Traffic,0.3497,0.5727
684,Lower Ashley Rd Millpond Sch LP HE,51.466296384780215,-2.5704926948083164,NO2,Urban Traffic,0.3447,0.5713
685,Mina Rd M32 AAPEX LP HE,51.46703513848245,-2.5738850357202794,NO2,Urban Traffic,0.3479,0.5641
686,Gable Rd M32 barrier LP HE,51.46698619076956,-2.5728622816605333,NO2,Urban Traffic,0.3477,0.5663
687,Portway - Sylvan Way,51.48641061994922,-2.6547679119042153,NO2,Roadside,0.4319,0.3939
688,Portway - Roman Way,51.47904125095154,-2.647620876172448,NO2,Roadside,0.3999,0.4089
689,Portway - Bridge Valley Road,51.45845682536582,-2.6298554930672178,NO2,Roadside,0.3107,0.4463
690,Blackboy Hill_Traffic light on pedestrian crossing,51.46906163168295,-2.6139922330997893,NO2,,0.3567,0.4797
691,Lamb Street_CAZ signpost by George Jones Park,51.45792559992801,-2.5795138851667607,NO2,,0.3084,0.5523
692,Sussex Place_No loading signpost,51.46691667467883,-2.579685272307403,NO2,,0.3474,0.5519
693,Bedminster Down Rd junction with Winterstoke Close_CAZ,51.433270897412555,-2.609542554307664,NO2,,0.2016,0.4891
694,A4044 Roundabout_Traffic Light,51.455771244580525,-2.584193042375873,NO2,,0.2991,0.5424
695,Speedwell Road_near Wackum Inn,51.46576596937718,-2.5419535128223014,NO2,,0.3424,0.6313
696,Rodney Road junction with Whiteway Road,51.46529043268529,-2.5279124420175134,NO2,,0.3403,0.6609
697,Whiteway Road junction with A420,51.4615416882718,-2.5356705609472345,NO2,,0.3241,0.6446
698,Air Balloon Hill Primary School,51.458570621919755,-2.530569245243335,NO2,,0.3112,0.6553
699,Nags Head Hill,51.45419426540695,-2.5259994213446975,NO2,,0.2922,0.6649
700,Barton Hill Academy,51.45406977069751,-2.5644398053427326,NO2,,0.2917,0.584
